id,name.local,name.en,name.slug,code.id,geo.lat,geo.lon
AZ603004,Abdalanlı,Abdalanli,abdalanli,AZ603004,39.412,46.547
AZ603057,Əbilcə,Abilja,abilja,AZ603057,39.221,46.707
AZ603068,Əfəndilər,Afandilar,afandilar,AZ603068,39.331,46.7
AZ603079,Alaqurşaq,Alagurshag,alagurshag,AZ603079,39.248,46.729
AZ603024,Əliquluuşağı,Aliguluushaghi,aliguluushaghi,AZ603024,39.452,46.475
AZ603082,Altınca,Altinja,altinja,AZ603082,39.221,46.678
AZ603086,Armudlu,Armudlu,armudlu,AZ603086,39.46,46.685
AZ603032,Aşağı Cibikli,Ashaghi Jibikli,ashaghi-jibikli,AZ603032,39.357,46.463
AZ603043,Aşağı Xocamsaqlı,Ashaghi Khojamsagli,ashaghi-khojamsagli,AZ603043,39.315,46.553
AZ603064,Aşağı Mollu,Ashaghi Mollu,ashaghi-mollu,AZ603064,39.305,46.696
AZ603033,Əyin,Ayin,ayin,AZ603033,39.349,46.487
AZ603006,Bəxtiyarlı,Bakhtiyarli,bakhtiyarli,AZ603006,39.387,46.538
AZ603080,Balahəsənli,Balahasanli,balahasanli,AZ603080,39.428,46.529
AZ603020,Balasoltanlı,Balasoltanli,balasoltanli,AZ603020,39.361,46.679
AZ603051,Ballıqaya,Balligaya,balligaya,AZ603051,39.248,46.655
AZ603078,Başarat,Basharat,basharat,AZ603078,39.466,46.726
AZ603050,Boyunəkər,Boyunakar,boyunakar,AZ603050,39.247,46.64
AZ603049,Çərəli,Charali,charali,AZ603049,39.252,46.614
AZ603010,Çardaqlı,Chardagli,chardagli,AZ603010,39.348,46.518
AZ603065,Çaytumas,Chaytumas,chaytumas,AZ603065,39.305,46.711
AZ603039,Dəmirçilər,Damirchilar,damirchilar,AZ603039,39.317,46.6
AZ603084,Davudlu,Davudlu,davudlu,AZ603084,39.44,46.429
AZ603089,Deşdahat,Deshdahat,deshdahat,AZ603089,39.503,46.698
AZ603062,Diləli Müskənli,Dilali Muskanli,dilali-muskanli,AZ603062,39.305,46.645
AZ603040,Dondarlı,Dondarli,dondarli,AZ603040,39.308,46.608
AZ603037,Eyvazlı,Eyvazli,eyvazli,AZ603037,39.435,46.395
AZ603046,Fərcan,Farjan,farjan,AZ603046,39.274,46.562
AZ603036,Qədili,Gadili,gadili,AZ603036,39.429,46.409
AZ603016,Qarağac,Garaghaj,garaghaj,AZ603016,39.396,46.649
AZ603076,Qaraqoyunlu,Garagoyunlu,garagoyunlu,AZ603076,39.179,46.687
AZ603017,Qaraimanlı,Garaimanli,garaimanli,AZ603017,39.394,46.664
AZ603013,Qaracallı,Garajalli,garajalli,AZ603013,39.417,46.638
AZ603012,Qarakişilər,Garakishilar,garakishilar,AZ603012,39.436,46.63
AZ603072,Qaralar,Garalar,garalar,AZ603072,39.225,46.721
AZ603007,Qayalı,Gayali,gayali,AZ603007,39.388,46.566
AZ603063,Qəzyan,Gazyan,gazyan,AZ603063,39.292,46.665
AZ603081,Qilican,Gilijan,gilijan,AZ603081,39.206,46.712
AZ603077,Qiyaslı,Giyasli,giyasli,AZ603077,39.173,46.706
AZ603029,Göyər Abbas,Goyar Abbas,goyar-abbas,AZ603029,39.385,46.456
AZ603028,Göyərcik,Goyarjik,goyarjik,AZ603028,39.4,46.479
AZ603047,Göyyal,Goyyal,goyyal,AZ603047,39.275,46.571
AZ603011,QUBADLI,GUBADLI,gubadli,AZ603011,39.345,46.58
AZ603092,Qundanlı,Gundanli,gundanli,AZ603092,39.43,46.488
AZ603025,Gürcülü,Gurjulu,gurjulu,AZ603025,39.428,46.462
AZ603093,Həkəri,Hakari,hakari,AZ603093,39.47,46.634
AZ603054,Hal,Hal,hal,AZ603054,39.275,46.676
AZ603066,Həmzəli,Hamzali,hamzali,AZ603066,39.315,46.707
AZ603045,Hərtiz,Hartiz,hartiz,AZ603045,39.281,46.59
AZ603088,Hat,Hat,hat,AZ603088,39.49,46.712
AZ603091,Hüseynuşağı,Huseynushaghi,huseynushaghi,AZ603091,39.245,46.716
AZ603015,İşıqlı,Ishigli,ishigli,AZ603015,39.401,46.659
AZ603027,Cılfır,Jilfir,jilfir,AZ603027,39.411,46.48
AZ603055,Kavdadıq,Kavdadig,kavdadig,AZ603055,39.238,46.71
AZ603009,Xələc,Khalaj,khalaj,AZ603009,39.365,46.531
AZ603030,Xallava,Khallava,khallava,AZ603030,39.378,46.487
AZ603014,Xəndək,Khandak,khandak,AZ603014,39.415,46.651
AZ603060,Xanlıq,Khanlig,khanlig,AZ603060,39.271,46.716
AZ603003,Xıdırlı,Khidirli,khidirli,AZ603003,39.421,46.538
AZ603059,Xocahan,Khojahan,khojahan,AZ603059,39.191,46.718
AZ603022,Xocik,Khojik,khojik,AZ603022,39.35,46.685
AZ603073,Kürd Mahruzlu,Kurd Mahruzlu,kurd-mahruzlu,AZ603073,39.214,46.735
AZ603005,Ləpəxeyranlı,Lapakheyranli,lapakheyranli,AZ603005,39.394,46.544
AZ603008,Mahmudlu,Mahmudlu,mahmudlu,AZ603008,39.37,46.572
AZ603071,Mahruzlu,Mahruzlu,mahruzlu,AZ603071,39.23,46.72
AZ603001,Məlikəhmədli,Malikahmadli,malikahmadli,AZ603001,39.45,46.514
AZ603053,Məmər,Mamar,mamar,AZ603053,39.252,46.694
AZ603023,Mərdanlı,Mardanli,mardanli,AZ603023,39.336,46.695
AZ603035,Məzrə,Mazra,mazra,AZ603035,39.41,46.411
AZ603044,Mehrili,Mehrili,mehrili,AZ603044,39.303,46.559
AZ603087,Milanlı,Milanli,milanli,AZ603087,39.488,46.729
AZ603041,Mirlər,Mirlar,mirlar,AZ603041,39.301,46.635
AZ603021,Mollabürhan,Mollaburhan,mollaburhan,AZ603021,39.354,46.669
AZ603052,Mollalı,Mollali,mollali,AZ603052,39.245,46.667
AZ603070,Muğanlı,Mughanli,mughanli,AZ603070,39.238,46.73
AZ603085,Muradxanlı,Muradkhanli,muradkhanli,AZ603085,39.455,46.626
AZ603026,Novlu,Novlu,novlu,AZ603026,39.416,46.447
AZ603018,Padar,Padar,padar,AZ603018,39.381,46.67
AZ603042,Poladlı,Poladli,poladli,AZ603042,39.312,46.579
AZ603048,Saldaş,Saldash,saldash,AZ603048,39.255,46.582
AZ603061,Saray,Saray,saray,AZ603061,39.311,46.632
AZ603019,Sarıyataq,Sariyatag,sariyatag,AZ603019,39.379,46.659
AZ603075,Seləli,Selali,selali,AZ603075,39.2,46.736
AZ603034,Seytas,Seytas,seytas,AZ603034,39.386,46.422
AZ603083,Tarovlu,Tarovlu,tarovlu,AZ603083,39.333,46.533
AZ603094,Tatar,Tatar,tatar,AZ603094,39.161,46.706
AZ603002,Teymur Müskənli,Teymur Muskanli,teymur-muskanli,AZ603002,39.428,46.504
AZ603058,Tinli,Tinli,tinli,AZ603058,39.2,46.713
AZ603056,Ulaşlı,Ulashli,ulashli,AZ603056,39.227,46.705
AZ603031,Yuxarı Cibikli,Yukhari Jibikli,yukhari-jibikli,AZ603031,39.368,46.439
AZ603038,Yuxarı Xocamsaqlı,Yukhari Khojamsagli,yukhari-khojamsagli,AZ603038,39.319,46.566
AZ603069,Yuxarı Mollu,Yukhari Mollu,yukhari-mollu,AZ603069,39.329,46.686
AZ603067,Yusifbəyli,Yusifbeyli,yusifbeyli,AZ603067,39.32,46.704
AZ603074,Zilanlı,Zilanli,zilanli,AZ603074,39.206,46.735
AZ603090,Zor,Zor,zor,AZ603090,39.304,46.549
